{
"type": "FeatureCollection",
"name": "KKR",
"crs": { "type": "name", "properties": { "name": "urn:ogc:def:crs:OGC:1.3:CRS84" } },
"features": [
{ "type": "Feature", "properties": { "Name": "Kharkagaon" }, "geometry": { "type": "Point", "coordinates": [ 81.3340613910526, 19.768336553372698 ] } },
{ "type": "Feature", "properties": { "Name": "Pungarpal" }, "geometry": { "type": "Point", "coordinates": [ 81.350869917063307, 19.770436725856101 ] } },
{ "type": "Feature", "properties": { "Name": "Kotkkursai" }, "geometry": { "type": "Point", "coordinates": [ 81.364152234645303, 19.787718197200899 ] } },
{ "type": "Feature", "properties": { "Name": "Irko" }, "geometry": { "type": "Point", "coordinates": [ 81.292675277336798, 19.785561946276101 ] } },
{ "type": "Feature", "properties": { "Name": "Padngalpara" }, "geometry": { "type": "Point", "coordinates": [ 81.334373, 19.849826 ] } },
{ "type": "Feature", "properties": { "Name": "Chapai" }, "geometry": { "type": "Point", "coordinates": [ 81.320714, 19.829652 ] } },
{ "type": "Feature", "properties": { "Name": "gurgapara" }, "geometry": { "type": "Point", "coordinates": [ 81.274573949986603, 20.0002424979095 ] } },
{ "type": "Feature", "properties": { "Name": "Jaitpuri" }, "geometry": { "type": "Point", "coordinates": [ 81.182307, 20.048282 ] } },
{ "type": "Feature", "properties": { "Name": "Nibra" }, "geometry": { "type": "Point", "coordinates": [ 81.268844, 19.889664 ] } },
{ "type": "Feature", "properties": { "Name": "maspur" }, "geometry": { "type": "Point", "coordinates": [ 81.261367, 19.933012 ] } },
{ "type": "Feature", "properties": { "Name": "Gaurpara" }, "geometry": { "type": "Point", "coordinates": [ 81.296167, 19.899988 ] } },
{ "type": "Feature", "properties": { "Name": "Aturbera" }, "geometry": { "type": "Point", "coordinates": [ 81.230582, 19.866013 ] } },
{ "type": "Feature", "properties": { "Name": "Kohka" }, "geometry": { "type": "Point", "coordinates": [ 81.264856, 19.878843 ] } },
{ "type": "Feature", "properties": { "Name": "Aturbera" }, "geometry": { "type": "Point", "coordinates": [ 81.230582, 19.866013 ] } },
{ "type": "Feature", "properties": { "Name": "Bhainsgaon" }, "geometry": { "type": "Point", "coordinates": [ 81.217788, 19.877053 ] } },
{ "type": "Feature", "properties": { "Name": "Gotiya" }, "geometry": { "type": "Point", "coordinates": [ 81.280278, 19.863889 ] } },
{ "type": "Feature", "properties": { "Name": "Huchari" }, "geometry": { "type": "Point", "coordinates": [ 81.305518972007405, 19.8084528153869 ] } },
{ "type": "Feature", "properties": { "Name": "Devgaon" }, "geometry": { "type": "Point", "coordinates": [ 81.348908057300704, 19.815131633461 ] } },
{ "type": "Feature", "properties": { "Name": "Pipra" }, "geometry": { "type": "Point", "coordinates": [ 81.371426252836102, 19.8065555157938 ] } },
{ "type": "Feature", "properties": { "Name": "Bandapal" }, "geometry": { "type": "Point", "coordinates": [ 81.3739678273555, 19.825537024493499 ] } },
{ "type": "Feature", "properties": { "Name": "Raye 1" }, "geometry": { "type": "Point", "coordinates": [ 81.340296811056305, 19.833712154609 ] } },
{ "type": "Feature", "properties": { "Name": "Raye" }, "geometry": { "type": "Point", "coordinates": [ 81.329533804931899, 19.8305436716741 ] } },
{ "type": "Feature", "properties": { "Name": "Kiskodo" }, "geometry": { "type": "Point", "coordinates": [ 81.350639870500302, 19.835648387389199 ] } },
{ "type": "Feature", "properties": { "Name": "Krohbera" }, "geometry": { "type": "Point", "coordinates": [ 81.369156075437004, 19.852210243933001 ] } },
{ "type": "Feature", "properties": { "Name": "Kongera" }, "geometry": { "type": "Point", "coordinates": [ 81.345929594804801, 19.857819807620999 ] } },
{ "type": "Feature", "properties": { "Name": "Khudurpal" }, "geometry": { "type": "Point", "coordinates": [ 81.318831074353497, 19.853114246620699 ] } },
{ "type": "Feature", "properties": { "Name": "Mechanar" }, "geometry": { "type": "Point", "coordinates": [ 81.335706803649799, 19.861924608130799 ] } },
{ "type": "Feature", "properties": { "Name": "Gawari" }, "geometry": { "type": "Point", "coordinates": [ 81.304081075727296, 19.844517657295199 ] } },
{ "type": "Feature", "properties": { "Name": "Garda" }, "geometry": { "type": "Point", "coordinates": [ 81.310242544851107, 19.869476658205301 ] } },
{ "type": "Feature", "properties": { "Name": "Karmari" }, "geometry": { "type": "Point", "coordinates": [ 81.322585326805296, 19.872436538114801 ] } },
{ "type": "Feature", "properties": { "Name": "warche" }, "geometry": { "type": "Point", "coordinates": [ 81.228672114020299, 19.908538658886101 ] } },
{ "type": "Feature", "properties": { "Name": "mandanar" }, "geometry": { "type": "Point", "coordinates": [ 81.249154502954994, 19.934390573958598 ] } },
{ "type": "Feature", "properties": { "Name": "Malmeta" }, "geometry": { "type": "Point", "coordinates": [ 81.236032421837905, 19.9580648529145 ] } },
{ "type": "Feature", "properties": { "Name": "Ernar 1" }, "geometry": { "type": "Point", "coordinates": [ 81.2273060413292, 19.9645928929327 ] } },
{ "type": "Feature", "properties": { "Name": "Ernar" }, "geometry": { "type": "Point", "coordinates": [ 81.218741787399196, 19.972158082423999 ] } },
{ "type": "Feature", "properties": { "Name": "Sarandi 1" }, "geometry": { "type": "Point", "coordinates": [ 81.198697240092997, 19.9707365352374 ] } },
{ "type": "Feature", "properties": { "Name": "Sarandi" }, "geometry": { "type": "Point", "coordinates": [ 81.199668193138095, 19.986016548980501 ] } },
{ "type": "Feature", "properties": { "Name": "Amagaon" }, "geometry": { "type": "Point", "coordinates": [ 81.194371471181, 20.001242337923401 ] } },
{ "type": "Feature", "properties": { "Name": "Chipondi" }, "geometry": { "type": "Point", "coordinates": [ 81.205601439783706, 19.9991244826723 ] } },
{ "type": "Feature", "properties": { "Name": "Kaleparas" }, "geometry": { "type": "Point", "coordinates": [ 81.186752801662493, 20.011614920873001 ] } },
{ "type": "Feature", "properties": { "Name": "Sirsangi" }, "geometry": { "type": "Point", "coordinates": [ 81.200381439608705, 20.022546367933401 ] } },
{ "type": "Feature", "properties": { "Name": "Chingchar" }, "geometry": { "type": "Point", "coordinates": [ 81.214320672170899, 20.018428130442999 ] } },
{ "type": "Feature", "properties": { "Name": "Amlipadar 1" }, "geometry": { "type": "Point", "coordinates": [ 81.202382674116393, 20.033135928058901 ] } },
{ "type": "Feature", "properties": { "Name": "Chipaunri" }, "geometry": { "type": "Point", "coordinates": [ 81.220279695174995, 20.003326160784798 ] } },
{ "type": "Feature", "properties": { "Name": "Chhote Murnar" }, "geometry": { "type": "Point", "coordinates": [ 81.232533087361304, 20.0052849799178 ] } },
{ "type": "Feature", "properties": { "Name": "Kamta" }, "geometry": { "type": "Point", "coordinates": [ 81.211071021649701, 20.0623054549743 ] } },
{ "type": "Feature", "properties": { "Name": "Sureli" }, "geometry": { "type": "Point", "coordinates": [ 81.225387045067194, 20.058819236426199 ] } },
{ "type": "Feature", "properties": { "Name": "UparKamta" }, "geometry": { "type": "Point", "coordinates": [ 81.250802624476506, 20.059903115403401 ] } },
{ "type": "Feature", "properties": { "Name": "Kotkul" }, "geometry": { "type": "Point", "coordinates": [ 81.289126540195497, 20.0726681527367 ] } },
{ "type": "Feature", "properties": { "Name": "Baretevra" }, "geometry": { "type": "Point", "coordinates": [ 81.295272806650502, 20.064849779350599 ] } },
{ "type": "Feature", "properties": { "Name": "Chhotetevra" }, "geometry": { "type": "Point", "coordinates": [ 81.292622928166693, 20.0591435752976 ] } },
{ "type": "Feature", "properties": { "Name": "Kesurbera" }, "geometry": { "type": "Point", "coordinates": [ 81.297999029805695, 20.054198095710198 ] } },
{ "type": "Feature", "properties": { "Name": "Sore" }, "geometry": { "type": "Point", "coordinates": [ 81.316901075550007, 20.060084610195201 ] } },
{ "type": "Feature", "properties": { "Name": "Amabera" }, "geometry": { "type": "Point", "coordinates": [ 81.325287603721407, 20.066611299977598 ] } },
{ "type": "Feature", "properties": { "Name": "Kurrutola" }, "geometry": { "type": "Point", "coordinates": [ 81.3455107976568, 20.067469703750799 ] } },
{ "type": "Feature", "properties": { "Name": "Bharritola" }, "geometry": { "type": "Point", "coordinates": [ 81.342676765492996, 20.0588873613661 ] } },
{ "type": "Feature", "properties": { "Name": "Gergaon" }, "geometry": { "type": "Point", "coordinates": [ 81.336936849193705, 20.048060751926599 ] } },
{ "type": "Feature", "properties": { "Name": "Koliyari" }, "geometry": { "type": "Point", "coordinates": [ 81.315797512312301, 20.039557453481098 ] } },
{ "type": "Feature", "properties": { "Name": "Matla" }, "geometry": { "type": "Point", "coordinates": [ 81.303533131116595, 20.036664033911102 ] } },
{ "type": "Feature", "properties": { "Name": "Mankot" }, "geometry": { "type": "Point", "coordinates": [ 81.267823388837897, 20.010650173996702 ] } },
{ "type": "Feature", "properties": { "Name": "Sapenhur" }, "geometry": { "type": "Point", "coordinates": [ 81.274561353903195, 20.0120467255656 ] } },
{ "type": "Feature", "properties": { "Name": "Gograpara" }, "geometry": { "type": "Point", "coordinates": [ 81.277218151336797, 20.0044730320772 ] } },
{ "type": "Feature", "properties": { "Name": "Dhaunsa" }, "geometry": { "type": "Point", "coordinates": [ 81.2404174528385, 19.987362354960901 ] } },
{ "type": "Feature", "properties": { "Name": "Moharpad" }, "geometry": { "type": "Point", "coordinates": [ 81.252934859393903, 19.9731546649754 ] } },
{ "type": "Feature", "properties": { "Name": "Darrokhallari" }, "geometry": { "type": "Point", "coordinates": [ 81.286719771938294, 19.9824919417124 ] } },
{ "type": "Feature", "properties": { "Name": "Koranhur" }, "geometry": { "type": "Point", "coordinates": [ 81.306607096854606, 19.964923449535199 ] } },
{ "type": "Feature", "properties": { "Name": "Arra" }, "geometry": { "type": "Point", "coordinates": [ 81.312214668311199, 19.9543624897603 ] } },
{ "type": "Feature", "properties": { "Name": "Tamora" }, "geometry": { "type": "Point", "coordinates": [ 81.300384411933805, 19.939838480403601 ] } },
{ "type": "Feature", "properties": { "Name": "Kotkoro" }, "geometry": { "type": "Point", "coordinates": [ 81.301720441888804, 19.931389651760298 ] } },
{ "type": "Feature", "properties": { "Name": "Mandanar" }, "geometry": { "type": "Point", "coordinates": [ 81.269957134853897, 19.939751993929399 ] } },
{ "type": "Feature", "properties": { "Name": "Kilenar" }, "geometry": { "type": "Point", "coordinates": [ 81.275126489204197, 19.9235349241611 ] } },
{ "type": "Feature", "properties": { "Name": "Wadgenar" }, "geometry": { "type": "Point", "coordinates": [ 81.295400067996894, 19.915498204266601 ] } },
{ "type": "Feature", "properties": { "Name": "Matla B" }, "geometry": { "type": "Point", "coordinates": [ 81.311947821813703, 19.905194244413 ] } },
{ "type": "Feature", "properties": { "Name": "Halainar" }, "geometry": { "type": "Point", "coordinates": [ 81.321442104562095, 19.917627359072299 ] } },
{ "type": "Feature", "properties": { "Name": "Alanar" }, "geometry": { "type": "Point", "coordinates": [ 81.334180205249694, 19.9254368381361 ] } },
{ "type": "Feature", "properties": { "Name": "Palarmeta" }, "geometry": { "type": "Point", "coordinates": [ 81.339880137699595, 19.899334955197101 ] } },
{ "type": "Feature", "properties": { "Name": "Burhakhursai" }, "geometry": { "type": "Point", "coordinates": [ 81.312871788381997, 19.8902150211206 ] } },
{ "type": "Feature", "properties": { "Name": "Bernanar" }, "geometry": { "type": "Point", "coordinates": [ 81.360163724141401, 19.902265894105799 ] } },
{ "type": "Feature", "properties": { "Name": "Mulle" }, "geometry": { "type": "Point", "coordinates": [ 81.371744680103802, 19.898063552656499 ] } },
{ "type": "Feature", "properties": { "Name": "Telanga" }, "geometry": { "type": "Point", "coordinates": [ 81.388113602198601, 19.885550538471598 ] } },
{ "type": "Feature", "properties": { "Name": "potebeda" }, "geometry": { "type": "Point", "coordinates": [ 81.225988475290507, 19.879525422489301 ] } },
{ "type": "Feature", "properties": { "Name": "kongali" }, "geometry": { "type": "Point", "coordinates": [ 81.252340885727605, 19.890850230818401 ] } },
{ "type": "Feature", "properties": { "Name": "brehbedapara" }, "geometry": { "type": "Point", "coordinates": [ 81.244240092076097, 19.962954442289899 ] } },
{ "type": "Feature", "properties": { "Name": "katulbeda" }, "geometry": { "type": "Point", "coordinates": [ 81.323287719869796, 19.7887188461855 ] } }
]
}
